stop_id,stop_name,latitude,longitude
810003,West 10th St & Beacon St,38.02936,-121.893819
810019,Wilbur Ave & Cavallo Rd,38.012362,-121.795246
810026,Cavallo Rd & Wilbur Ave,38.011653,-121.796973
810035,Cavallo Rd & East 13th St,38.009146,-121.796802
810042,East 18th St & Cavallo Rd,38.004807,-121.796225
810057,East 18th St & Biglow Dr,38.004787,-121.793425
810061,East Tregallas Rd & Countrywood Dr,37.996201,-121.788275
810074,East Tregallas Rd & Harbour Dr,37.996963,-121.791557
810088,East Tregallas Rd & Patricia Ave,37.997616,-121.795375
810100,Cavallo Rd & Sunset Dr,37.998469,-121.79791
810116,Cavallo Rd & Gary Ave,38.000604,-121.796759
810128,Cavallo Rd & Parker Ln,38.003296,-121.796708
810137,East 18th St & Cavallo Rd,38.004988,-121.797203
810144,East 18th St & Helmuth Ln,38.004993,-121.801304
810159,James Donlon Blvd & Sth Royal Links Cir,37.97988,-121.810243
810163,James Donlon Blvd & G St,37.980161,-121.81511
810171,James Donlon Blvd & Blythe Dr,37.980346,-121.820887
810192,Contra Loma Blvd & James Donlon Blvd,37.982954,-121.825097
810205,Contra Loma Blvd & Gatter Dr,37.986202,-121.823782
810214,Contra Loma Blvd & Putnam St,37.991308,-121.822329
810222,Buchanan Rd & Balboa Ct,37.998644,-121.82313
810233,Buchanan Rd & San Jose Dr,38.00039,-121.830252
810246,Buchanan Rd & Delta Fair Blvd,37.998719,-121.839217
810251,Buchanan Rd & Somersville Dr,37.998162,-121.842808
810267,Buchanan Rd & Meadows Ave,37.998067,-121.864524
810280,Buchanan Rd & Loveridge Rd,37.998046,-121.873138
810298,Loveridge Rd & Ventura Dr,38.000402,-121.873729
810308,Loveridge Rd & Stoneman Ave,38.003073,-121.872716
810312,East Leland Rd & Loveridge Rd,38.008477,-121.87144
810320,Wilbur Ave & Cavallo Rd,38.012133,-121.796097
810331,Cavallo Rd & Wilbur Ave,38.011757,-121.79678
810349,Cavallo Rd & East 13th St,38.009174,-121.796585
810354,Cavallo Rd & Amber Dr,38.005766,-121.796679
810365,East 18th St & Tce Dr,38.005032,-121.792254
810396,Prewett Ranch Dr & Forty Niner Wy,37.957507,-121.779437
810401,Prewett Ranch Dr & Marigold Wy,37.959706,-121.786104
810417,Prewett Ranch Dr & Mokelumne Dr,37.961386,-121.789995
810429,Prewett Ranch Dr & Mt Conness Wy,37.959934,-121.795028
810438,Dallas Ranch Rd & Stonecrest Dr,37.962305,-121.797582
810440,Dallas Ranch Rd & Mt Hamilton Dr,37.96742,-121.796942
810455,Dallas Ranch Rd & Cache Peak Dr,37.970567,-121.796956
810464,Dallas Ranch Rd & Cache Peak Dr,37.969732,-121.79668
810472,Dallas Ranch Rd & Mt Hamilton Dr,37.96746,-121.796661
810486,Dallas Ranch Rd & Stonecrest Dr,37.962504,-121.797326
810493,Prewett Ranch Dr & Mt Conness Wy,37.960114,-121.794772
810504,Prewett Ranch Dr & Mokelumne Dr,37.96158,-121.789798
810515,Prewett Ranch Dr & Marigold Wy,37.960071,-121.786348
810527,Prewett Ranch Dr & Forty Niner Wy,37.957625,-121.779145
810543,Davison Dr & Harbour Dr,37.989532,-121.790471
810558,Davison Dr & Burwood Wy,37.98721,-121.795631
810562,Davison Dr & Garrow Dr,37.986106,-121.798406
810570,Davison Dr & Sunset Ln,37.985114,-121.803171
810589,Davison Dr & Mountaire Dr,37.985326,-121.802808
810591,Davison Dr & Garrow Dr,37.98585,-121.799285
810602,Davison Dr & Ashburton Dr,37.987251,-121.796556
810618,Davison Dr & Harbour Dr,37.989615,-121.790708
810625,Davison Dr & Harris Dr,37.990445,-121.787468
810639,Main St & Charles Wy,37.998737,-121.73149
810641,Main St & Norcross Ln,37.997947,-121.716936
810656,Ohara Ave & Acme St,37.996982,-121.713893
810660,Ohara Ave & East Home St,37.995132,-121.713903
810673,Ohara Ave & Las Dunas Ave,37.992577,-121.71388
810687,Main St & Laurel Rd,37.983203,-121.695744
810706,Main St & Delta Rd,37.96877,-121.695966
810710,Brentwood Blvd & Lone Tree Wy,37.960499,-121.695986
810723,Brentwood Blvd & Sunset Rd,37.953976,-121.696069
810734,Brentwood Blvd & Applewood Com,37.950374,-121.695938
810747,Brentwood Blvd & Technology Wy,37.944746,-121.696033
810752,Brentwood Blvd & Village Dr,37.942007,-121.696076
810768,2nd St & Oak St,37.933732,-121.694028
810775,Brentwood Blvd & Oak St,37.93186,-121.695731
810781,Brentwood Blvd & Garin Comm Ctr,37.92672,-121.6914
810907,Brentwood Blvd & Oak St,37.931545,-121.695712
810911,2nd St & Maple St,37.934377,-121.69486
810924,2nd St & Brentwood Blvd,37.936087,-121.696401
810930,Brentwood Blvd & Village Dr,37.941524,-121.696341
810948,Brentwood Blvd & Sand Creek Rd,37.946203,-121.696281
810953,Brentwood Blvd & Applewood Com,37.95069,-121.696216
810969,Brentwood Blvd & Grant St,37.953867,-121.696261
810976,Brentwood Blvd & Lone Tree Wy,37.961009,-121.696233
810982,Main St & Neroly Rd,37.968972,-121.696205
810995,Main St & West Bolton Rd,37.973361,-121.696103
811004,Main St & Laurel Rd,37.983026,-121.696048
811027,Ohara Ave & West Home St,37.994505,-121.714045
811036,Ohara Ave & Acme St,37.996836,-121.714033
811043,Main St & Norcross Ln,37.997716,-121.716376
811058,Main St & Genesco St,37.999947,-121.732442
811101,Balfour Rd & Hudson Dr,37.925669,-121.694665
811140,Balfour Rd & Hudson Dr,37.925403,-121.694228
811223,Sand Creek Rd & Highland Wy,37.943496,-121.726435
811234,Sand Creek Rd & Highland Wy,37.943455,-121.734403
811247,Sand Creek Rd & Sand Creek Crossing,37.943405,-121.737116
811252,John Muir Hospital,37.924308,-121.736686
811268,Balfour Rd & Foothill Dr,37.925167,-121.741244
811275,Balfour Rd & Ranchwood Dr,37.925174,-121.745748
811281,Balfour Rd & American Ave,37.925162,-121.751831
811299,American Ave,37.918801,-121.756103
811309,American Ave & Balfour Rd,37.922265,-121.752791
811313,Balfour Rd & John Muir Pky,37.925438,-121.739433
811321,Sand Creek Rd & Sand Creek Crossing,37.943737,-121.738289
811332,Sand Creek Rd & Shady Willow Ln,37.943705,-121.732405
811345,Sand Creek Rd & Fairview Ave,37.944184,-121.724279
811366,Fairview Ave & San Jose Ave,37.940296,-121.7232
811378,Fairview Ave & Central Blvd,37.933006,-121.723472
811384,Balfour Rd & Clearview Dr,37.925505,-121.719073
811397,Balfour Rd & Minnesota Ave,37.925512,-121.714366
811402,Balfour Rd & Griffith Ln,37.925586,-121.705982
811418,Walnut Blvd & Balfour Rd,37.92662,-121.696342
811425,Brentwood Park n Ride,37.933838,-121.698755
811439,Walnut Blvd & Orchard Dr,37.92833,-121.695972
811441,Balfour Rd & Griffith Ln,37.925346,-121.704405
811456,Balfour Rd & Claremont Dr,37.925281,-121.714289
811460,Balfour Rd & McViking Wy,37.925212,-121.721176
811473,Fairview Ave & Central Blvd,37.932102,-121.72376
811487,Fairview Ave & San Jose Ave,37.939536,-121.723989
811494,Fairview Ave & Sand Creek Rd,37.943527,-121.723734
811500,Laurel Rd & Hillcrest Ave,37.970829,-121.760475
811516,Laurel Rd & Canada Hills Wy,37.972322,-121.758858
811528,Laurel Rd & Kushner Wy,37.974863,-121.75792
811537,Canada Valley Rd & Canada Hills Dr,37.974051,-121.7542
811544,Canada Valley Rd & Palomino Wy,37.971925,-121.752665
811559,Canada Valley Rd & Vista Grande Dr,37.969365,-121.750482
811563,Canada Valley Rd & McFarlan Ranch Wy,37.96639,-121.747289
811571,Canada Valley Rd & Lone Tree Wy,37.962728,-121.747241
811585,Canada Valley Rd & Lone Tree Wy,37.962017,-121.747534
811592,Canada Valley Rd & McFarlan Ranch Wy,37.966201,-121.747369
811603,Canada Valley Rd & Vista Grande Dr,37.968817,-121.750498
811619,Canada Valley Rd & Palomino Wy,37.971475,-121.75229
811626,Canada Valley Rd & Canada Hills Dr,37.973553,-121.75417
811635,Laurel Rd & Kushner Wy,37.974831,-121.757554
811642,Laurel Rd & Canada Hills Dr,37.972022,-121.758658
811657,Laurel Rd & Hillcrest Ave,37.970812,-121.76004
811674,Wildflower Dr & Hillcrest Ave,37.98812,-121.782392
811690,Hillcrest Ave & Bellflower Dr,37.983338,-121.770818
811707,Hillcrest Ave & Wild Horse Rd,37.982215,-121.766942
811711,Hillcrest Ave & Hidden Gln Dr,37.977685,-121.762527
811730,Hillcrest Ave & Laurel Rd,37.970526,-121.760364
811748,Hillcrest Ave & Country Hills Dr,37.966858,-121.759895
811753,Hillcrest Ave & Lone Tree Wy,37.962376,-121.75978
811769,Lone Tree Wy & Deer Valley Plz,37.967342,-121.784422
811776,Lone Tree Wy & Black Diamond Dr,37.969311,-121.79004
811782,Lone Tree Wy & Dallas Ranch Rd,37.970867,-121.795192
811795,Lone Tree Wy & Golf Course Rd,37.976459,-121.802077
811805,Lone Tree Wy & Clayburn Rd,37.98304,-121.805847
811814,Lone Tree Wy & Davison Dr,37.9846,-121.80598
811822,Lone Tree Wy & Clearbrook Rd,37.98703,-121.806644
811833,Lone Tree Wy & Terranova Dr,37.989536,-121.807774
811846,Lone Tree Wy & Robert St,37.992027,-121.807895
811851,Lone Tree Wy & West Tregallas Rd,37.99524,-121.807668
811879,A St & Belshaw St,37.999926,-121.806159
811880,A St & East 19th St,38.004323,-121.806159
811898,A St & West 16th St,38.006063,-121.806142
811908,A St & East 13th St,38.008767,-121.806141
811912,A St & West 6th St,38.013789,-121.806289
811920,West 6th St & A St,38.013985,-121.806376
811949,West 4th St & J St,38.015427,-121.817763
811954,L St & West 5th St,38.015018,-121.819615
811965,L St & West 9th St,38.011809,-121.819615
811983,L St & West 18th St,38.005945,-121.819629
811996,L St & William Reed Dr,38.004339,-121.819901
812006,Sycamore Dr & Lemontree Wy,38.004201,-121.821887
812010,Sycamore Dr & Banyan Wy,38.004881,-121.825108
812023,Sycamore Dr & Spanos St,38.005291,-121.82758
812034,Sycamore Dr & Canal,38.00557,-121.830745
812047,Auto Center Dr & Sycamore Dr,38.005931,-121.834741
812052,Delta Fair Blvd & Somersville Towne Center,38.003644,-121.841802
812068,Delta Fair Blvd & Kendree St,38.003001,-121.847186
812075,Delta Fair Blvd & School St,38.003651,-121.850311
812081,Delta Fair Blvd & Belle Dr,38.005453,-121.854222
812109,East Leland Rd & Commerce Pl,38.008195,-121.864655
812113,East Leland Rd & Loveridge Rd,38.007926,-121.870225
812121,Loveridge Rd & Hwy 4,38.011007,-121.869082
812132,Pittsburg Antioch Hwy & Loveridge Rd,38.015176,-121.860563
812145,Columbia St & East 14th St,38.019841,-121.873846
812166,East 12th St & Pine St,38.023319,-121.876156
812178,Harbor St & East Santa Fe Ave,38.024756,-121.879245
812184,Harbor St & 10th St,38.026283,-121.878767
812197,East 10th St & Los Medanos St,38.027265,-121.882841
812204,Railroad Ave & Central Ave,38.025058,-121.886408
812215,Railroad Ave & School St,38.021297,-121.887587
812227,Civic Ave & Railroad Ave,38.020857,-121.889538
812243,17th West St & Bruno Ave,38.022509,-121.896184
812262,Andrew Ave & Power Ave,38.020138,-121.899278
812270,Power Ave & Jorgensen Dr,38.021323,-121.903544
812289,Power Ave & Case Dr,38.022271,-121.90568
812291,Polaris Dr & Brickyard Ave,38.023167,-121.911356
812301,Polaris Dr & East Catamaran Cir,38.023146,-121.915093
812317,Polaris Dr & Range Rd,38.023161,-121.917789
812364,Willow Pass Rd & Balclutha Wy,38.026675,-121.923713
812372,Willow Pass Rd & Loftus Rd,38.026674,-121.927778
812386,Willow Pass Rd & Winter Wy,38.026709,-121.930857
812408,Willow Pass Rd & Bella Vista Ave,38.026678,-121.934048
812412,Willow Pass Rd & Poinsettia Ave,38.026676,-121.938908
812431,Bailey Rd & Canal Rd,38.021004,-121.941729
812483,West Leland Rd & Oak Hills Dr,38.015432,-121.943492
812505,Bailey Rd & Canal Rd,38.020849,-121.94203
812514,Bailey Rd & Mary Ann Ln,38.024632,-121.942064
812522,Willow Pass Rd & Nth Broadway Ave,38.02686,-121.940606
812533,Willow Pass Rd & Madison Ave,38.026849,-121.936898
812546,Willow Pass Rd & Crivello Ave,38.026858,-121.933621
812551,Willow Pass Rd & Seasons Dr,38.026891,-121.928779
812567,Willow Pass Rd & Balclutha Wy,38.026826,-121.923242
812579,Polaris Dr & Range Rd,38.023346,-121.917617
812580,Polaris Dr & East Catamaran Cir,38.02332,-121.915079
812598,Polaris Dr & Brickyard Ave,38.023331,-121.910361
812624,17th West St & Bruno Ave,38.022601,-121.896068
812630,Civic Ave & Davi Ave,38.02157,-121.891523
812648,Civic Ave & Railroad Ave,38.021081,-121.889472
812653,Railroad Ave & Bliss Ave,38.015989,-121.889641
812669,Railroad Ave & East Leland Rd,38.013312,-121.890655
812676,Railroad Ave & Alvarado Ave,38.010761,-121.891634
812682,Atlantic Ave & Atlantic Cir,38.007997,-121.891395
812695,Harbor St & Presidio Ln,38.009195,-121.887161
812719,Harbor St & Garcia Ave,38.012474,-121.885707
812735,Bliss Ave & Harbor St,38.014867,-121.886206
812742,Harbor St & East Leland Rd,38.011448,-121.885801
812761,Atlantic Ave & Atlantic Cir,38.007997,-121.888573
812774,Atlantic Ave & Atlantic Cir,38.007693,-121.890825
812788,Railroad Ave & West Leland Rd,38.011707,-121.8916
812790,Railroad Ave & Bliss Ave,38.015251,-121.890245
812800,Railroad Ave & East 17th St,38.021828,-121.887677
812816,Railroad Ave & Central Ave,38.024973,-121.886744
812828,East 10th St & Los Medanos St,38.02755,-121.883331
812837,Harbor St & East 10th St,38.026358,-121.878432
812844,Harbor St & East 12th St,38.024598,-121.878977
812859,East 12th St & Pine St,38.023579,-121.87655
812863,East 12th St & Columbia St,38.022573,-121.872916
812871,Columbia St & East 14th St,38.020113,-121.873553
812885,Pittsburg Antioch Hwy & Loveridge Rd,38.015361,-121.860508
812892,Loveridge Rd & California Ave,38.012635,-121.864151
812902,Loveridge Rd & Hwy 4,38.011095,-121.868197
812925,East Leland Rd & Loveridge Rd,38.008081,-121.869694
812939,East Leland Rd & Gladstone Dr,38.008534,-121.865642
812956,Delta Fair Blvd & Belle Dr,38.006108,-121.854058
812960,Delta Fair Blvd & School St,38.003769,-121.850018
812987,Delta Fair Blvd & Kaiser,38.004146,-121.842735
812994,Auto Center Dr & Century Blvd,38.00634,-121.834819
813017,Sycamore Dr & Canal,38.005733,-121.830889
813029,Sycamore Dr & Spanos St,38.005404,-121.827796
813038,Sycamore Dr & Banyan Wy,38.005077,-121.825446
813040,Sycamore Dr & Peppertree Wy,38.004223,-121.821432
813055,L St & West 18th St,38.005036,-121.819938
813064,L St & West 9th St,38.011654,-121.819898
813072,L St & West 5th St,38.01511,-121.819894
813086,West 4th St & J St,38.015539,-121.817777
813093,West 4th St & H St,38.01554,-121.815392
813103,West 6th St & B St,38.014106,-121.807409
813119,A St & West 6th St,38.013776,-121.806125
813135,A St & East 19th St,38.00407,-121.805909
813157,A St & East 13th St,38.008782,-121.805925
813161,A St & East 16th St,38.006161,-121.805918
813174,Hillcrest Ave & Country Hills Dr,37.966083,-121.760159
813188,Hillcrest Ave & Sterling Hill Dr,37.97071,-121.760945
813208,Hillcrest Ave & Golden Bear Dr,37.977018,-121.762877
813212,Hillcrest Ave & Bellflower Dr,37.983115,-121.770023
813220,Hillcrest Ave & Wild Horse Rd,37.981534,-121.76604
813249,Hillcrest Ave & Via Dora Dr,37.983098,-121.772853
813254,Hillcrest Ave & Wildflower Dr,37.987003,-121.780357
813265,Wildflower Dr & Deer Valley Rd,37.986848,-121.784705
813296,East 18th St & Hargrove St,38.004998,-121.782936
813306,East 18th St & St Claire Dr,38.005017,-121.778751
813323,East 18th St & Viera Ave,38.005056,-121.773172
813347,East 18th St & Wilson St,38.005071,-121.765062
813352,East 18th St & Drive In Way,38.005247,-121.756023
813436,A St & Belshaw St,38.000477,-121.805868
813443,Deer Valley Rd & Prewett Ranch Dr,37.957745,-121.77811
813462,Lone Tree Wy & East Tregallas Rd,37.995819,-121.806537
813470,Lone Tree Wy & Worrell Rd,37.994044,-121.807697
813489,Lone Tree Wy & Walton Ln,37.991451,-121.807558
813491,Lone Tree Wy & Clearbrook Rd,37.987631,-121.806733
813502,Lone Tree Wy & Sunset Ln,37.985489,-121.805757
813518,Lone Tree Wy & Sutter Delta,37.982628,-121.805496
813525,Lone Tree Wy & Bluerock Dr,37.977616,-121.802896
813539,Lone Tree Wy & Eagleridge Dr,37.971399,-121.795931
813541,Lone Tree Wy & Muirwood Wy,37.970022,-121.791272
813556,Lone Tree Wy & Country Hills Dr,37.968447,-121.786546
813560,Lone Tree Wy & Deer Valley Rd,37.966339,-121.781001
813587,Deer Valley Rd & Kaiser,37.951553,-121.778018
813594,Sand Creek Rd & Deer Valley Rd,37.94952,-121.775722
813600,West 10th St & Verne Roberts Cir,38.012408,-121.830614
813628,Main St & Teakwood Dr,37.997942,-121.726598
813637,Main St & Teakwood Dr,37.997717,-121.725735
813644,Main St & Empire Ave,37.997839,-121.730492
813659,Empire Ave & Sauterne Wy,37.992385,-121.732237
813663,Buchanan Rd & Suzanne Dr,37.998052,-121.880624
813692,West Cypress Rd & Lorenzetti Dr,37.990489,-121.722039
813709,West Cypress Rd & Ponderosa Wy,37.990492,-121.726768
813713,West Cypress Rd & Ohara Ave,37.990606,-121.713793
813721,West Cypress Rd & Orchard Prk Dr,37.990624,-121.711095
813732,West Cypress Rd & Rose Ave,37.990646,-121.704777
813745,West Cypress Rd & Mellowood Dr,37.99067,-121.69992
813750,Ohara Ave & Atherton Blvd,37.967839,-121.713914
813766,Lone Tree Wy & Giannini Rnch,37.961474,-121.729846
813778,Lone Tree Wy & Empire Ave,37.961448,-121.731749
813784,Lone Tree Wy & Shady Willow Ln,37.96145,-121.737252
813797,Lone Tree Wy & Canada Valley Rd,37.961497,-121.748934
813807,Lone Tree Wy & Vista Grande Dr,37.961587,-121.754435
813811,Lone Tree Wy & Hillcrest Ave,37.96158,-121.758896
813824,Lone Tree Wy & Indian Hill Dr,37.961712,-121.764053
813830,Lone Tree Wy & Sagebrush Dr,37.963572,-121.771898
813848,Buchanan Rd & Santa Ana Dr,37.998055,-121.883443
813853,Buchanan Rd & Harbor St,37.998042,-121.887675
813895,Railroad Ave & Yosemite Dr,38.005689,-121.893743
813905,Railroad Ave & Sequoia Dr,38.001945,-121.895183
813933,Buchanan Rd & Inverness Dr,37.99789,-121.882025
813979,Alhambra Ave & Walnut Ave,37.992253,-122.130843
813998,Muir Rd & Roman Wy,37.994576,-122.10983
814069,Loveridge Rd & Delta Deanza Trail,38.005277,-121.871854
814244,Shady Willow Ln & Las Montanas Ct,37.947613,-121.735486
814259,Bailey Rd & Maylard St,38.017257,-121.941809
814263,East Leland Rd & Railroad Ave,38.012154,-121.890473
814271,James Donlon Blvd & Contra Loma Blvd,37.98197,-121.824916
814285,East Tregallas Rd & Harbour Dr,37.996838,-121.79145
814292,Wharf Dr & Shore Dr,38.039856,-121.975999
814302,Hillcrest Ave & Yellowstone Dr,38.003281,-121.787641
814318,Buchanan Rd & Somersville Rd,37.997873,-121.845605
814325,Buchanan Rd & Gentrytown Dr,37.99866,-121.836594
814421,Loveridge Rd & Loveridge Cir,38.007573,-121.871291
814445,East Leland Rd & Piedmont Wy,38.009393,-121.875367
814450,East Leland Rd & Freed Wy,38.009728,-121.8803
814466,East Leland Rd & Harbor St,38.011206,-121.886528
814484,West Leland Rd & Crestview Dr,38.014027,-121.896683
814497,West Leland Rd & Burton Ave,38.015177,-121.900342
814506,West Leland Rd & Dover Wy,38.016345,-121.905133
814510,West Leland Rd & Range Rd,38.014032,-121.912547
814523,West Leland Rd & John Henry Johnson Pky,38.013716,-121.918195
814534,West Leland Rd & Sugartree Dr,38.015198,-121.92605
814547,East Leland Rd & Stoneridge Dr,38.0092,-121.879112
814552,East Leland Rd & Dias Cir,38.008848,-121.873939
814568,Muir Rd & Veterans Dr,37.994118,-122.114444
814575,Arnold Dr & Starflower Dr,37.994533,-122.078853
814599,Alhambra Ave & Walnut Ave,37.992447,-122.130639
814608,West Leland Rd & Jacqueline Dr,38.0156,-121.928571
814612,West Leland Rd & Sugartree Dr,38.01566,-121.932678
814727,West Leland Rd & Sth Broadway Ave,38.015465,-121.940757
814736,West Leland Rd & Delta Vista Ln,38.015283,-121.939393
814743,West Leland Rd & Chestnut Dr,38.015367,-121.936027
814758,West Leland Rd & Sugartree Dr,38.015513,-121.932173
814762,West Leland Rd & Jacqueline Dr,38.01533,-121.927955
814770,West Leland Rd & Daffodil Dr,38.01468,-121.923945
814791,West Leland Rd & Chestnut Dr,38.015533,-121.93664
814801,East Leland Rd & Homewood Dr,38.009716,-121.881292
814817,Loveridge Rd & Stoneman Ave,38.003042,-121.873006
814829,Loveridge Rd & Ventura Dr,38.000318,-121.874049
814840,Buchanan Rd & Ventura Dr,37.997898,-121.867269
814855,Buchanan Rd & Meadows Ave,37.997889,-121.862938
814903,Verne Roberts Cir & West 10th St,38.011951,-121.841902
814919,Verne Roberts Cir & Crow Ct,38.010333,-121.840487
814961,Century Blvd & Brenden,38.008202,-121.844767
814988,Century Blvd & Brenden,38.007726,-121.844649
815008,Willow Pass Rd & Evora Rd,38.01477,-121.998545
815012,Willow Pass Rd & Evora Rd,38.014513,-121.998609
815016,Pacifica Ave & Harbor Dr,38.033969,-121.968545
815031,Driftwood Dr and Coastview Ct,38.025081,-121.983562
815054,Driftwood Dr & Steffa St,38.030012,-121.978879
815083,Driftwood Dr & Pacifica Ave,38.033897,-121.977882
815096,Pacifica Ave & Shoal Dr,38.033933,-121.974424
815110,Pacifica Ave & Inlet Dr,38.034098,-121.968898
815123,Pacifica Ave & Breaker Dr,38.033961,-121.965717
815134,Pacifica Ave & Canal Dr,38.034087,-121.966032
815147,Port Chicago Hwy & Pacific Ave,38.033691,-121.960591
815168,Kevin Dr & Harvey Wy,38.031626,-121.958174
815199,West Leland Rd & Betty Ln,38.013262,-121.895894
815201,Hillcrest Ave & Deerfield Dr,37.973571,-121.762628
815272,Kevin Dr & Oram Wy,38.028135,-121.954448
815286,Cavallo Rd & Minner Ave,38.000542,-121.796963
815293,Cavallo Rd & Sunset Dr,37.998483,-121.798075
815319,East Tregallas Rd & Patricia Ave,37.997455,-121.795069
815335,East Tregallas Rd & Countrywood Dr,37.995817,-121.787545
815342,James Donlon Blvd & Sth Royal Links Cir,37.979807,-121.80948
815357,James Donlon Blvd & Community Prk,37.980064,-121.819935
815361,James Donlon Blvd & G St,37.979764,-121.81404
815374,James Donlon Blvd & Dimaggio Wy,37.983256,-121.831473
815388,Gentrytown Dr & Meredith Wy,37.984603,-121.835736
815390,Gentrytown Dr & Curtis Dr,37.988003,-121.839478
815414,Gentrytown Dr & Sequoia Dr,37.993471,-121.839732
815422,Gentrytown Dr & Madrid Ln,37.997058,-121.838073
815433,Delta Fair Blvd & Gentrytown Dr,37.999639,-121.838077
815446,Gentrytown Dr & Lopez Dr,37.99639,-121.838371
815451,Gentrytown Dr & Sequoia Dr,37.993428,-121.839903
815467,Gentrytown Dr & Jefferson Wy,37.991329,-121.840228
815479,James Donlon Blvd & Contra Loma Blvd,37.982792,-121.826061
815480,Gentrytown Dr & Putnam St,37.989485,-121.840277
815498,Gentrytown Dr & Dimaggio Wy,37.987155,-121.838751
815507,James Donlon Blvd & Gentrytown Dr,37.983053,-121.835207
815511,James Donlon Blvd & Silverado Dr,37.983021,-121.83062
815524,Fitzuren Rd & G St,37.997704,-121.81656
815530,West Tregallas Rd & G St,37.997535,-121.81525
815553,West 18th St & D St,38.005049,-121.810622
815569,West 18th St & D St,38.004872,-121.810172
815576,West 18th St & L St,38.005282,-121.818327
815582,West 18th St & L St,38.005144,-121.818252
815595,West 4th St & O St,38.01562,-121.823263
815609,Verne Roberts Cir & West 10th St,38.011967,-121.841737
815613,Verne Roberts Cir & Crow Ct,38.01018,-121.839116
815621,Verne Roberts Cir & Costco,38.009384,-121.83595
815632,Verne Roberts Cir (opp. Costco),38.00932,-121.835022
815645,Contra Loma Blvd & San Jose Dr,37.994019,-121.82283
815650,Contra Loma Blvd & St. Francis Dr SB,37.996671,-121.822858
815666,Contra Loma Blvd & Contra Loma Plaza,37.990729,-121.822651
815678,Contra Loma Blvd & Longview Rd,37.989222,-121.823181
815684,West 2nd St & West 3rd St,38.016467,-121.809116
815697,West 2nd St & Waldie Plz,38.016947,-121.814838
815700,West 2nd St & K St,38.016967,-121.818151
815716,L St & West 3rd St,38.016433,-121.81985
815728,L St & West 2nd St,38.016673,-121.819626
815737,West 4th St & O St,38.015434,-121.823621
815744,East 12th St & Columbia St,38.022377,-121.872753
815759,Railroad Ave & Redondo Dr,38.000052,-121.895688
815825,Auto Center Dr & West 18th St,38.007665,-121.832915
815856,Deer Valley Rd & Prewett Ranch Dr,37.960684,-121.778498
816013,Willow Pass Rd & Enterprise Cir,38.029372,-121.898048
816021,Willow Pass Rd & Nantucket Dr,38.029577,-121.913039
816045,West 10th St & West St,38.029299,-121.890471
816050,Wilbur Ave & Almond St,38.012152,-121.805231
816066,Wilbur Ave & Almond St,38.012279,-121.805338
816078,Wilbur Ave & Orchard Ln,38.012155,-121.801092
816084,Wilbur Ave & Orchard Ln,38.012326,-121.802203
816097,Cavallo Rd & East 18th St,38.00481,-121.798277
816130,Delta Fair Blvd & Gentrytown Dr,37.999618,-121.837866
816202,Kevin Dr & Shellie Ct,38.031762,-121.955496
816218,Kevin Dr & Pamela Dr,38.030288,-121.953851
816225,Kevin Dr & Pamela Dr,38.029788,-121.953665
816239,Kevin Dr & Willow Pass Rd,38.027473,-121.954582
816241,Willow Pass Rd & Weldon Ln,38.026873,-121.957889
816256,Willow Pass Rd & Goble Dr,38.025414,-121.962089
816260,West Leland Rd & San Marco Blvd,38.019283,-121.965068
816273,West Leland Rd & Alves Ranch Rd,38.017493,-121.954409
816287,West Leland Rd & Alves Ranch Rd,38.018049,-121.955961
816294,Evora Rd & Pomo St,38.024591,-121.966464
816304,Evora Rd & St Tropez Dr,38.024872,-121.974141
816327,Evora Rd & Driftwood Dr,38.024286,-121.983026
816336,Mota Dr & Rio Ln,38.02768,-121.97429
816343,Mota Dr & Azores Cir,38.02856,-121.973148
816358,Mariners Cove Dr & Pacifica Ave,38.033498,-121.972628
816370,Wharf Dr & Marina Rd,38.036367,-121.976039
816391,Shore Rd & Lakeview Dr,38.039113,-121.970866
816406,Shore Rd & Inlet Dr,38.038785,-121.969033
816410,Inlet Dr & Marina Rd,38.036364,-121.969108
816423,Willow Pass and Kevin Dr,38.026676,-121.954169
816434,Willow Pass Rd & Ambrose Ave,38.02668,-121.951871
816447,Willow Pass Rd & Clearland Dr,38.026675,-121.945806
816452,Willow Pass Rd & Clearland Dr,38.026849,-121.94658
816481,San Marco Blvd & West Leland Rd,38.020112,-121.965867
816520,Balclutha Wy & Polaris Dr,38.022912,-121.921902
816531,Polaris Dr & Balclutha Wy,38.022629,-121.921309
816549,East 3rd St & Harbor St,38.032287,-121.878781
816554,East 3rd St & Riverway Dr,38.032776,-121.8799
816565,Marina Blvd & East 3rd St,38.03422,-121.884078
816577,East Marina Blvd & Pelican Loop,38.036631,-121.884432
816583,Pittsburg Marina,38.038622,-121.885152
816596,East Marina Blvd & Pelican Loop,38.03599,-121.884205
816605,Marina Blvd & Pelican Loop,38.034511,-121.884188
816633,West 10th St & Beacon St,38.029525,-121.893844
816667,West Leland Rd & John Henry Johnson Pky,38.013912,-121.919929
816679,Hillcrest Ave & Renwick Ln,38.000252,-121.787636
816680,Auto Center Dr & Costco Way,38.008888,-121.83217
816698,West 10th St & B St,38.01125,-121.807857
816701,Driftwood Dr & Coastview Ct,38.024823,-121.983448
816717,West 10th St & B St,38.011146,-121.807734
816740,Alhambra Ave & C St,38.004973,-122.130964
816819,Harbor St & School St,38.019326,-121.881196
816826,School St & Barrus Ave,38.020003,-121.879853
816835,School St & Barrus Ave,38.019823,-121.87982
816842,Chester Dr & School St,38.017993,-121.874555
816857,Harbor St & Central Ave,38.023811,-121.879337
816861,Harbor St & Central,38.023949,-121.879596
816874,Harbor St & School St,38.019234,-121.881527
816971,Concord BART,37.974766,-122.029025
816992,East St & Bacon St,37.982701,-122.033933
817028,Railroad Ave (SB) & Center Dr,38.018196,-121.889166
817037,Railroad Ave (NB) & Center Dr,38.018901,-121.888514
817044,Railroad Ave (SB) & East 5th St,38.031913,-121.883734
817059,Railroad Ave (NB) & East 8th St,38.029047,-121.884681
817063,Railroad Ave (SB) & East 8th St,38.029039,-121.884868
817118,Lone Tree Way & Gann St,37.961442,-121.718421
817139,Lone Tree Way & Medallion Dr,37.96174,-121.71899
817141,Ohara Ave & Grant St,37.954182,-121.71398
817156,Grant St & Ohara Ave,37.953868,-121.713601
817160,Adams Ln (Blue Goose Park),37.949792,-121.707492
817187,Century Blvd & Century Wy,38.009563,-121.848673
817194,Century Blvd & Century Plz,38.006362,-121.840382
817211,L St & Claudia Ct,38.000014,-121.821126
817224,Hillcrest Ave & Via Dora Dr,37.983317,-121.773435
817230,Kevin Dr & Harvey Wy,38.031731,-121.958576
817248,Harbor St & Army St,38.017879,-121.881746
817253,West Leland Rd & Golf Club Rd,38.014503,-121.91147
817269,West 10th St & Auto Center Dr,38.012603,-121.829715
817282,Lone Tree Wy & Deer Valley High,37.964068,-121.774086
817295,Lone Tree Wy & Deer Valley Rd,37.965423,-121.77952
817305,Deer Valley Rd & Lone Tree Wy,37.966525,-121.780121
817314,Deer Valley Rd & Country Hills Dr,37.970606,-121.781772
817322,Deer Valley Rd & Asilomar Dr,37.972797,-121.783901
817333,Deer Valley Rd & Rocky Point Dr,37.977062,-121.786455
817346,Deer Valley Rd & Bluerock Dr,37.980299,-121.784949
817351,Deer Valley Rd & Carpinteria Dr,37.983074,-121.78424
817367,Deer Valley Rd & Wildflower Dr,37.98651,-121.785906
817379,Deer Valley Rd & Hillcrest Tce Ct,37.988968,-121.785644
817380,Hillcrest Ave & East Tregallas Rd,37.994002,-121.784506
817398,Hillcrest Ave & Larkspur Dr,37.995242,-121.784724
817403,Deer Valley Rd & Hillcrest Tce Ct,37.987695,-121.78556
817419,Deer Valley Rd & Carpinteria Dr,37.98401,-121.784498
817426,Deer Valley Rd & Bluerock Dr,37.980548,-121.784324
817435,Deer Valley Rd & Rocky Point Dr,37.977328,-121.786226
817442,Deer Valley Rd & Asilomar Dr,37.973922,-121.78441
817457,Deer Valley Rd & Country Hills Dr,37.971582,-121.782515
817461,Deer Valley Rd & Lone Tree Wy,37.966433,-121.779861
817474,Lone Tree Wy & Prewett Prk,37.964789,-121.775868
817488,Lone Tree Wy & Hillcrest Ave,37.961863,-121.761474
817490,Lone Tree Wy & Vista Grande Dr,37.961874,-121.755946
817501,Lone Tree Wy & Canada Valley Rd,37.96186,-121.748546
817517,Lone Tree Wy & Hwy 4,37.961827,-121.745516
817529,Lone Tree Wy & Slatten Ranch Rd,37.96181,-121.737865
817540,Lone Tree Wy & Giannini Rnch,37.961801,-121.729459
817555,Ohara Ave & Atherton Blvd,37.966732,-121.714266
817604,West Cypress Rd & Fall Ln,37.990529,-121.699459
817615,West Cypress Rd & Rose Ave,37.990535,-121.704637
817627,West Cypress Rd & Orchard Prk Dr,37.9905,-121.711338
817636,West Cypress Rd & Ohara Ave,37.990469,-121.713567
817658,West Cypress Rd & Alder Dr,37.990606,-121.725901
817662,West Cypress Rd & Lorenzetti Dr,37.990606,-121.722126
817731,Main St & Live Oak Ave,38.005058,-121.741049
817749,Main St & Neroly Rd,38.004962,-121.750389
817754,Antioch BART,37.995572,-121.778137
817765,East 18th St and CA-160,38.004969,-121.754256
817777,East 18th St & Wilson St,38.004876,-121.765209
817783,East 18th St & Viera Ave,38.004829,-121.773234
817796,East 18th St & Trembath Ln,38.004829,-121.780432
817806,East 18th St & Hillcrest Ave,38.003914,-121.786563
817810,Hillcrest Ave & Yosemite Dr,38.002686,-121.787471
817823,Hillcrest Ave & Arzate Ln,38.001144,-121.787471
817847,West Leland Rd & Dover Wy,38.016064,-121.90488
817875,Black Diamond & East 8th St,38.029909,-121.88577
817881,Black Diamond & East 8th St,38.029714,-121.885937
817899,East Leland Rd & Harbor St,38.010755,-121.885601
817932,Prewett Prk & Lone Tree Wy,37.966011,-121.774433
817945,Pacifica Ave & Port Chicago Hwy,38.034078,-121.961092
817950,Main St & Big Break Rd,38.00483,-121.733495
817966,Railroad Ave & Linscheid Dr,38.003088,-121.894495
817978,West Tregallas Rd & D St,37.997495,-121.808727
817984,Railroad Ave & Pueblo Dr,37.999261,-121.896266
817997,Loveridge Rd & East Leland Rd,38.009319,-121.870304
818328,Fairview Dr & Potomac Ct,38.001445,-121.84494
818371,Buchanan Rd & San Jose Dr,38.000394,-121.829166
818385,Buchanan Rd & McDermott Dr,37.997894,-121.877955
818392,Kevin Dr & Kim St,38.031591,-121.955462
818407,Driftwood Dr & Steffa St,38.029696,-121.978993
818411,Driftwood Dr & Pacifica Ave,38.033679,-121.978947
818424,Willow Pass Rd & Alves,38.026874,-121.951565
818430,East Leland Rd & Railroad Ave,38.011982,-121.890725
818469,Buchanan Rd & Campbell Dr,37.997904,-121.886633
818668,G St & West 10th St,38.011514,-121.813729
818675,G St & West 7th St,38.013237,-121.813726
818681,G St & West 7th St,38.012986,-121.813855
818718,West Tregallas Rd & D St,37.997584,-121.810293
818741,East 18th St & Alpha Wy,38.004816,-121.800858
818756,Main St & Big Break Rd,38.003643,-121.732676
818760,Empire Ave & Gamay Dr,37.994319,-121.732229
818787,Lone Tree Wy & Empire Ave,37.961776,-121.733348
818843,Andrew Ave & 17th West St,38.022506,-121.898368
818858,East St & Bacon St,37.982543,-122.034049
818889,Pittsburg/Bay Point BART,38.017592,-121.945317
818901,Harbor St & Leland Ln,38.010524,-121.886452
818929,Main St & Bolton East Rd,37.973856,-121.695895
818938,Deer Valley Rd & Prewett Ranch Dr,37.960613,-121.778773
818955,Berrellesa St & Escobar St,38.016616,-122.139478
818964,Railroad Ave (NB) & East 5th St,38.032051,-121.883643
819018,West 4th St & I St,38.015424,-121.816013
819025,Main St & East 18th St,38.005222,-121.752237
819039,West 10th St & Enterprise Ct,38.029541,-121.897189
819073,East Leland Rd & Lakeview Cir,38.007891,-121.861317
819087,Bailey Rd & Placer Dr,38.024787,-121.941795
819094,Delta Fair Blvd & Kendree St,38.003196,-121.847145
819104,Ohara Ave & Francisco Villa Dr,37.991522,-121.714133
819115,Verne Roberts Cir & Costco Way,38.009936,-121.832891
819127,West 10th St & G St,38.011145,-121.813159
819136,Century Blvd & Century Plz,38.00597,-121.839142
819143,Power Ave & Jorgensen Dr,38.021849,-121.903963
819158,Harbor St & East 10th St,38.026506,-121.878663
819162,Pacifica Ave & Wharf Dr,38.034024,-121.976233
819170,Empire Ave & Lone Tree Wy,37.960649,-121.732642
819191,Amtrak,38.018487,-122.139107
819209,Alhambra Ave & Wano St,38.005641,-122.131119
819213,Muir Rd & Roman Wy,37.994693,-122.110006
819221,Arnold Dr & Starflower Dr,37.994474,-122.079064
819245,Shady Willow Ln & Los Cielos Wy,37.947355,-121.735521
819250,Railroad Ave & Mariposa Dr,38.006202,-121.893301
819266,Bailey Rd & Maylard St,38.016165,-121.942116
819278,Power Ave & Andrew Ave,38.020107,-121.900204
819284,Gentrytown Dr & Jefferson Wy,37.991982,-121.840074
819297,Hillcrest Ave & Deerfield Dr,37.973134,-121.762925
819307,Evora Rd & Mota Dr,38.024981,-121.97679
819324,Balclutha Wy & Willow Pass Rd,38.026323,-121.923892
819330,Balclutha Wy & Willow Pass Rd,38.026348,-121.923827
819348,L St & Claudia Ct,38.000299,-121.821285
819353,Buchanan Rd & Loveridge Rd,37.9979,-121.873037
819369,Willow Pass Rd & Nantucket Dr,38.029428,-121.91056
819382,Civic Ave & 17th West St,38.021348,-121.891622
819395,West Leland Rd & Burton Ave,38.014999,-121.900352
819400,Loveridge Rd & Deanza Trail,38.005272,-121.872151
819437,Buchanan Rd & Ventura Dr,37.998063,-121.868832
819444,East Leland Rd & Lakeview Cir,38.007256,-121.862094
819574,West 1st St & Waldie Plz,38.01768,-121.816492
819617,West 2nd St & Prospect Wy,38.016855,-121.817445
819629,West 2nd St & Waldie Plz,38.016861,-121.81461
819638,West 2nd St & East St,38.01685,-121.810841
819640,West 2nd St & E St,38.016959,-121.810919
819655,A St & West 3rd St,38.016203,-121.808883
819767,Buchanan Rd & Balboa Ct,37.998341,-121.823077
819798,Davison Dr & Harris Dr,37.990253,-121.787355
819812,Contra Loma Blvd & St Francis Dr NB,37.997405,-121.822379
819820,Willow Pass Rd & Kevin Dr,38.026804,-121.954288
819940,Escobar St & Alhambra Ave,38.017091,-122.138483
